tourney_name,latitude,longitude
Brisbane,-27.4689623,153.0235009
Sydney,-33.8698439,151.2082848
Perth,-31.9558967,115.8605784
Adelaide 1,-34.8194586,138.5047494
Pune,18.5213738,73.8545071
Auckland,-36.852095,174.7631803
Adelaide 2,-34.9528738,138.5061022
Melbourne,-37.8142454,144.9631732
Cordoba,37.8845813,-4.7760138
Dallas,32.7762719,-96.7968559
Montpellier,43.6112422,3.8767337
Delray Beach,26.4614625,-80.0728201
Buenos Aires,-34.6095579,-58.3887904
Rotterdam,51.9244424,4.47775
Doha,25.3108807,51.5081812
Rio De Janeiro,-22.9110137,-43.2093727
Marseille,43.2963986,5.3777888
Acapulco,16.8680495,-99.8940182
Dubai,25.0742823,55.1885387
Santiago,9.8694792,-83.7980749
Indian Wells,33.7217965,-116.338303
Miami,25.7741566,-80.1935973
Estoril,38.7095707,-9.3901368
Houston,29.7589382,-95.3676974
Marrakech,31.6258257,-7.9891608
Monte Carlo,43.7402961,7.426559
Barcelona,41.3825802,2.177073
Munich,48.1371079,11.5753822
Banja Luka,44.7720845,17.1917651
Madrid,40.416782,-3.703507
Rome,41.8933203,12.4829321
Geneva,46.2017559,6.1466014
Lyon,45.7578137,4.8320114
Paris,48.8588897,2.320041
s Hertogenbosch,51.6889387,5.303116
Stuttgart,48.7784485,9.1800132
Halle,51.4824354,11.9712985
London,51.5074456,-0.1277653
Mallorca,39.613432,2.8829185
Eastbourne,50.7664372,0.2781546
Wimbledon,51.4214787,-0.2064027
Gstaad,46.4721619,7.288748
Bastad,56.4268963,12.8608789
Newport,41.4899827,-71.3137707
Atlanta,33.7544657,-84.3898151
Hamburg,53.5501721,10.0013165
Umag,45.4323587,13.5224098
Kitzbuhel,47.4463585,12.3911473
Los Cabos,43.5122922,-6.0973052
Washington,38.8950982,-77.0363849
Toronto,43.6534817,-79.3839347
Cincinnati,39.1012809,-84.5127405
Winston-Salem,36.0998131,-80.2440518
New York,40.7127281,-74.0060152
Chengdu,30.659867,104.063315
Zhuhai,22.273734,113.5721327
Astana,51.1159933,71.4677059
Beijing,39.9057136,116.3912972
Shanghai,31.2312707,121.4700152
Stockholm,59.3251172,18.0710935
Tokyo,35.6768601,139.7638947
Antwerp,51.2211097,4.3997081
Basel,47.5581077,7.5878261
Vienna,48.2083537,16.3725042
Metz,49.1196964,6.1763552
Sofia,42.6977028,23.3217359
Turin,45.0677551,7.6824892
Jeddah,21.5504432,39.1742363
"Santiago, Chile",-33.4376995,-70.6510671
Hangzhou,30.2489634,120.2052342
"Los Cabos, Mexico",21.166121,-100.936442
Belgrade,44.8153318,20.4456588
Hong Kong,22.3492155,114.1857978
Brussels,50.8467372,4.352493
Rio de Janeiro,-22.9110137,-43.2093727
Athens,33.9597677,-83.376398
Bucharest,44.4361414,26.102684
Almaty,43.2363924,76.9457275
Montreal,45.5031824,-73.5698065
Adelaide,-34.9281805,138.5999312
"Cordoba, Argentina",-31.4166867,-64.1834193
Paris O,44.2526208,-123.7706633
Sunderland,54.9058512,-1.3828727
Quinta Do Lago,37.8037119,-8.6849265
Ipoh Perak,4.5986817,101.0900236
Villeneuve-Loubet+H,43.6653492,7.1259148
Gyula,46.6438656,21.2747575
Lausanne,46.5218269,6.6327025
Heraklion,31.302979,30.120813
Esch/Alzette,49.6271194,6.1306279
Poprad,49.0541521,20.2976401
Tulsa OK,36.1563122,-95.9927516
Melilla,35.2918698,-2.9409026
Targu Jiu,45.0422947,23.2728118
San Diego CA,32.7166921,-117.169295
Chennai,13.0836939,80.270186
Orlando FL,28.5479786,-81.4127842
La Paz,-16.4955455,-68.1336229
Wichita KS,37.6922361,-97.3375448
Ystad,55.4295203,13.8201171
Osijek,45.5548793,18.6953685
Sintra,38.8355446,-9.3522371
Londrina,-23.4761271,-51.1179013
Martos,37.7222633,-3.9703241
Segrate,45.4907352,9.2948204
Szczawno,51.4388599,18.7942608
Concepcion,-36.8270698,-73.0502064
Southaven,34.9873822,-90.0034862
Lajeado,-29.4671522,-51.9624046
Getxo,43.3431164,-3.0078627
Vigo,42.1986395,-8.727956
Alaminos,40.8633363,-2.7259879
Cairo,30.0443879,31.2357257
San Diego,32.7174202,-117.162772
Xalapa,19.5408338,-96.9146374
Bielsko Biala,49.822118,19.0448936
Davangere,14.4661266,75.9206361
Yerba Buena,37.7879363,-122.4075201
Cattolica,43.9639933,12.7441515
Gijón,43.5449422,-5.66275
Weston FL,33.5363407,-79.0416178
Limassol,34.6852901,33.0332657
Wetzlar,50.570561,8.531245
Norwich,52.6285576,1.2923954
Coquimbo,-30.7546652,-70.9005536
Veigy-Foncenex,46.2695471,6.2567358
Boca Raton FL,26.367379,-80.1737932
Edgbaston,52.4709941,-1.9225861
Poitiers,46.5802596,0.340196
Buschhausen,50.7677269,6.3022318
Oberhaching,48.0261846,11.5962489
Lannion,48.7322183,-3.4587994
Monastir,35.7707582,10.8280511
Pozzuoli,40.822643,14.1219109
Trujillo,-8.1116778,-79.0287742
Rochester NY,43.157285,-77.615214
Maanshan,31.6866105,118.5048377
Nyiregyhaza,47.9557802,21.7167982
Alcala de Henares,40.481954,-3.363981
Daegu,35.8713,128.6018
Frankfurt am Main,50.1106444,8.6820917
Tsukuba,36.0833265,140.077279
Los Angeles,34.0536909,-118.242766
Gimcheon,36.1398035,128.1139534
Kottingbrunn,47.9513587,16.2285187
Anapoima,4.5493011,-74.5359119
Gubbio,43.3517605,12.5772959
Ribeirao Preto,-21.1776315,-47.8100983
Rosbach,50.2990872,8.6967275
Herzlia,32.1656255,34.8469023
Szentendre,47.6677606,19.0760467
Grasse,43.6589011,6.9239103
Decatur,39.8454163,-88.9524151
Cochabamba,-17.4012458,-66.1675681
Guatemala,15.5855545,-90.345759
Kish Island,26.5350665,53.9719803
Porto,41.1502195,-8.6103497
Saint-Augustin-de-Desmaures,46.743354,-71.4569733
Eindhoven,51.4485569,5.4501225
Burnie,-41.0523688,145.9064073
Koksijde,51.1187723,2.6349277
Guiyang,26.5878031,106.7086936
Malibu CA,34.035591,-118.689423
Slovenj Gradec,46.509144,15.0790677
Elvas,38.8806123,-7.1637237
Portimao,37.1375808,-8.5368426
Bol,43.2605186,16.6520192
Messina,38.1937571,15.5542082
Laval,48.0706687,-0.7734022
Stellenbosch,-33.934444,18.869167
Slobozia,44.5635999,27.3618477
Santo Domingo Este,18.4936515,-69.8383703
Zlatibor,43.6742413,19.6124633
Mendoza,-34.5970325,-68.7304797
Reus,41.1555564,1.1076133
Joinville,48.4433253,5.1377537
Setubal,38.5241783,-8.8932341
Alaminos-Larnaca,34.8068728,33.4344219
Chacabuco,-32.7414522,-65.2061252
Sao Paulo,-23.5506507,-46.6333824
Mogi das Cruzes,-23.5234284,-46.1926671
Rancho Santa Fe CA,33.0242314,-117.1979781
Irvine,33.6856969,-117.825981
Wroclaw,51.1263106,16.9781963
Figueira da Foz,40.1485808,-8.855655
Mandya,12.6368939,76.7275477
Hazebrouck,50.7226113,2.5360331
Baotou,40.6174777,109.944912
Pittsburgh,40.4406968,-80.0025666
Nakhon Pathom,13.8918425,100.0165659
East Lansing MI,42.7320307,-84.4721678
Gold Coast,-28.0023731,153.4145987
Telfs,47.3046511,11.071515
Grado,45.6781065,13.3979091
Mumbai,19.054999,72.8692035
Trento,46.1029536,11.1297425
Nishi-Tokyo,35.6951188,139.434364
Marburg,50.8090106,8.7704695
Agadir,30.4205162,-9.5838532
Mbombela,-25.4729094,30.9772719
Mysuru,12.3041464,76.6529521
Most,50.5032737,13.636112
Vilnius,54.6870458,25.2829111
Tallahassee FL,30.4380832,-84.2809332
Mar Del Plata,-37.9976168,-57.5482079
Toulouse-Balma,43.6096587,1.4980089
Rognac,43.4872341,5.2342903
Aldershot,51.2494169,-0.7630148
Norman,35.2225717,-97.4394816
Pazardzhik,42.1486841,24.1531871
Las Palmas de Gran Canaria,28.1288694,-15.4349015
M25+H Plaisir,47.8336777,-3.3995459
Quillota,-32.879997,-71.2473555
Otopeni,44.5507941,26.0729271
Oviedo,43.3533452,-5.8795096
Rabat,34.0218454,-6.8408929
Tanger,35.7696302,-5.8033522
Bucaramanga,7.1669842,-73.1047294
Wesley Chapel FL,28.1866014,-82.366121
Olavarria,-36.8938752,-60.3231676
Bourg-en-Bresse,46.2051192,5.2250324
Bali,-8.2271303,115.1919203
Launceston,-41.4340813,147.1373496
Castelo Branco,39.9767583,-7.4460599
Norman OK,35.2225717,-97.4394816
Harmon,34.7486602,-99.8358205
Luan,51.5074456,-0.1277653
Addis Ababa,9.0358119,38.7524315
Champaign IL,40.1164841,-88.2430932
Ueberlingen,47.7664456,9.1605106
Altamura,40.8285595,16.5527314
Gaborone,-24.6581357,25.9088474
Villahermosa,17.9884657,-92.9366326
Amstelveen,52.3028209,4.8596844
Perugia,43.1070321,12.4029962
Lodz,51.7687323,19.4569911
Singapore,1.357107,103.8194992
Tanagura,37.0299106,140.3795451
Saint-Augustin,48.7858921,3.0292059
Nova Gorica,45.9581509,13.6474998
Timaru,-44.3930254,171.2509786
Metzinger,49.1471267,6.8566328
Padova,45.391408,11.8058487
Chieti,42.1026928,14.4159053
Loughborough,52.7723859,-1.2077985
Aktobe,50.2836938,57.2298129
Loule,37.1399532,-8.023324
Curtea de Arges,45.1469341,24.6779826
Lakewood,39.7085736,-105.0846694
Villers-lès-Nancy,48.6731344,6.1536378
Uslar,51.658901,9.6347785
Kiseljak,43.9431668,18.0774711
New Delhi,28.6138954,77.2090057
Kampala,0.3177137,32.5813539
Bressuire,46.8425572,-0.4929017
Mistelbach,48.5694535,16.5720327
Gijon,43.5449422,-5.66275
Turku,60.4515932,22.2669991
Yanagawa,33.1630969,130.4058091
Feira de Santana,-12.2578934,-38.9598047
Villers-les-Nancy,48.6731344,6.1536378
Bergamo,45.7566557,9.7542192
Hillcrest,41.9511398,-89.0645413
Taipei,25.0375198,121.5636796
Satu Mare,47.7891763,22.8725598
La Plata,-34.9206797,-57.9537638
Tarragona,41.1172364,1.2546057
San Gregorio di Catania,37.565254,15.111788
Louisville,38.2542376,-85.759407
Quinta do Lago,37.8037119,-8.6849265
Varnamo,57.184902,14.0410977
Asuncion,-25.2800459,-57.6343814
Yanagawa City,33.1170145,130.3811412
Tsaghkadzor,40.5364376,44.7171383
Glasgow,55.861155,-4.2501687
Grenoble,45.1875602,5.7357819
Duffel,51.0957176,4.5061988
Creteil,48.7771486,2.4530731
Roehampton,51.4498773,-0.2412672
Anseong,37.007773,127.279971
Sherbrooke,45.403271,-71.889038
Poznan,52.4006632,16.9197326
Kursumlijska Banja,43.0578755,21.2550485
Bath,51.3813864,-2.3596963
Hammamet,36.4012665,10.5572827
Saint Dizier,48.6371125,4.9473513
The Hague,52.0799838,4.3113461
Szabolcsveresmart,48.2924404,22.019809
Mildura,-34.195274,142.1503146
Bolzano,46.6559455,11.2302129
Albuquerque NM,35.0841034,-106.650985
Bad Waltersdorf,47.168506,16.0088882
Indore,22.7203616,75.8681996
Wuning,29.2777525,115.0476181
Benicarlo,40.4180244,0.4229813
Takasaki,36.3220984,139.0032758
Cadolzburg,49.4591406,10.8563868
Caltanissetta,37.4902628,14.063284
Tulsa,36.1563122,-95.9927516
Kachreti,41.6733766,45.6745112
Sarreguemines,49.1094836,7.0708865
Aarhus,56.1496278,10.2134046
Recife,-8.0584933,-34.8848193
Grodzisk Mazowiecki,52.1066223,20.6313441
Arequipa,-16.3988667,-71.5369607
Malta,35.9311442,14.3951627
Sion,46.2311749,7.3588795
Kuala Lumpur,3.1516964,101.6942371
Doboj,44.7324559,18.0850157
Santo Domingo,18.4713858,-69.8918436
Allershausen,48.4333967,11.6001317
Hyderabad,17.360589,78.4740613
Zahra,39.0466407,48.2920973
Rosario,-32.9593609,-60.6617024
Vero Beach FL,27.6387163,-80.3975399
Porec,45.2271961,13.5957333
Villavicencio,4.1114595,-73.4967836
Manacor,39.5696458,3.2106461
Wels,52.2928116,-3.73893
Budapest,47.4813896,19.1457723
Azay-le-Rideau,47.2614793,0.4667128
Muttenz,47.525113,7.6477401
Dublin,53.3493795,-6.2605593
Bacau,46.5560493,26.9153557
Islamabad,33.6938118,73.0651511
Skopje,41.9962164,21.4318935
Luque,-25.2665417,-57.4926928
Orlando,28.5421218,-81.379045
Pitesti,44.8572882,24.8721156
Sabadell,41.5460801,2.1083214
Palmanova,45.9054635,13.3099318
Wodonga,-36.1205539,146.8880837
Idanha-a-Nova,39.9260883,-7.2436356
Mataro,41.5398348,2.4448926
Telde,27.9984538,-15.4166761
Nussloch,49.3228653,8.6959385
Bakio,43.4230397,-2.8142578
Selva Gardena,46.5551877,11.7600992
Gandia,38.9675925,-0.1803423
Karuizawa,36.3482938,138.5969968
Huy,50.5180856,5.2408138
Arad,46.1753793,21.3196342
Biella,45.5669538,8.086912
Salvador,13.8000382,-88.9140683
Kotka,60.4672673,26.9459462
Zaragoza,41.6915847,-0.9101268
Rochester,43.157285,-77.615214
Swan Hill,-35.3390784,143.5588436
Oldenzaal,52.3116616,6.9241615
Osaka,34.6937569,135.5014539
Cluj Napoca,46.769379,23.5899542
Hyvinkaa,60.6311481,24.8603615
M25+H Kassel,51.2274336,9.6649226
Santo Domingo de los Tsachilas,-0.3158526,-79.2224149
Forbach,49.1862822,6.8958562
Maputo,-25.966213,32.56745
Dallas TX,32.7762719,-96.7968559
Kranjska Gora,46.4502123,13.8434055
Prijedor,44.9801369,16.7123704
Tamworth,-31.0900743,150.9290159
Tainan,22.9912348,120.184982
Maceio,-9.6476843,-35.7339264
Metzingen,49.1058818,6.9585188
Zagreb,45.8130967,15.9772795
Palm Coast FL,29.5541432,-81.2207673
Constanta,44.1767161,28.6507598
San Salvador de Jujuy,-24.1852569,-65.2994789
Quito,-0.2201641,-78.5123274
Valencia,39.4697065,-0.3763353
Kramsach,47.4450519,11.8808259
Al Zahra,32.6780313,12.8725109
Angers,47.4739884,-0.5515588
Lesa,45.829644,8.5648573
Alcalá de Henares,40.481954,-3.363981
Kutaisi,42.2716078,42.7054475
Huntsville AL,33.5599563,-86.8010317
Belem,-1.45056,-48.4682453
Wichita,37.6922361,-97.3375448
Boca Raton,26.3586885,-80.0830984
Ithaca NY,42.4374175,-76.5483724
Offenbach,50.1055002,8.7610698
Nonthaburi,13.8610918,100.3456772
Kolkata,22.5726459,88.3638953
Shymkent,42.3146962,69.5883282
Foggia,41.5028106,15.4528939
Almoradi,38.1096615,-0.7919322
Louny,50.3572914,13.7969195
Hamilton,43.2560802,-79.8728583
Santa Cruz do Sul,-29.714209,-52.4285807
Ceuta,35.894422,-5.3558174
Tehran,35.6892523,51.3896004
Frankfurt,50.1106444,8.6820917
Trois-Rivières,46.3432325,-72.5428485
Faro,37.0162944,-7.935182
Pszczyna,49.9778089,18.9423721
Villa Maria,45.4797551,-73.6197555
Vic,41.9302021,2.2545943
Krakow,50.0619474,19.9368564
Kayseri,38.7219011,35.4873214
Edwardsville IL,38.8114364,-89.953157
Kalaburagi,17.2408957,76.7697439
Criciuma,-28.6789941,-49.3695627
Jablonec nad Nisou,50.7240899,15.1710958
Kingston,17.9712148,-76.7928128
Gentofte,55.7535946,12.541436
Deauville,49.3595018,0.0746638
Kamen,51.5918019,7.6616804
Brazzaville,-4.2694407,15.2712256
Kuching,1.5597561,110.345397
Trier,49.7596208,6.6441878
Meerbusch,51.2652237,6.6760958
Falun,60.6070068,15.6323059
Manama,26.2235041,50.5822436
Rosario-Santa Fe,-32.9593609,-60.6617024
Pretoria,-25.7459277,28.1879101
Vaxjo,56.8787183,14.8094385
M25+H Bacau,46.6472782,26.1720516
Hrastnik,46.1349361,15.1175752
Targu Mures,46.5446253,24.561196
Pontevedra,42.428065,-8.6041447
Neuquen,-38.8502546,-69.832275
Pardubice,50.0385812,15.7791356
Edwardsville,38.8114364,-89.953157
Nakhon Si Thammarat,8.6772337,99.7309635
Hinode,35.7423436,139.2574768
Ust-Kamenogorsk,49.9484438,82.6274791
Canberra,-35.2975906,149.1012676
Warmbad Villach,46.5896992,13.8237195
Naples FL,26.1421976,-81.7942944
Azul,-36.777492,-59.863442
Montauban,44.0175835,1.3549991
Kigali,-1.9534357,30.1140089
Oradea,47.0549163,21.9285231
Huamantla,19.3233319,-97.9145665
Vrhnika,45.9475554,14.2875904
Maribor,46.5576439,15.6455854
Haren,52.7905619,7.2400267
Mungia,43.3617398,-2.8350746
Tacarigua,10.1621404,-69.2143603
Pensacola FL,30.421309,-87.2169149
Vila Real de Santo Antonio,37.1946052,-7.4155628
Shenzhen,22.5445741,114.0545429
Slovenska Bistrica,46.4073813,15.5635933
M25+H Mulhouse,47.5618658,7.4882664
Bhubaneswar,20.2602964,85.8394521
Pirot,43.1547342,22.5865039
Trnava,48.3767652,17.5858175
Ann Arbor MI,42.2813722,-83.7484616
Bodrum,37.0343987,27.430651
Sanxenxo,42.4220772,-8.8353365
Santa Cruz,28.467178,-16.2507843
Edmonton,53.5462055,-113.491241
Ahmedabad,23.0215374,72.5800568
Tauranga,-37.6859006,176.167505
Celje,46.2293889,15.2616828
Vale do Lobo,-29.4821108,-51.2914435
Hua Hin,12.5699326,99.9573437
Baotao,44.7250564,119.6063645
Mungia-Laukariz,43.3384457,-2.8528127
Louisville KY,38.2542376,-85.759407
Javea,38.7893804,0.1634168
Caloundra,-26.7981633,153.1354434
CEUTA,35.894422,-5.3558174
Vaasa,63.0957722,21.6159187
Prague,50.0874654,14.4212535
Rovinj,45.0807411,13.6417282
Champaign,40.1164841,-88.2430932
Villeneuve-Loubet,43.6579947,7.1217592
Alkmaar,52.6008538,4.8170994
Klosters,46.8829097,9.8750678
Ollersbach,48.1873864,15.8440588
Dharwad,15.3707296,75.1332867
Rio Cuarto,-33.1237585,-64.3489782
Store,46.1979164,15.3276728
Anning,24.8377491,102.4026832
Castelldefels,41.2861022,1.9824173
Les Franqueses del Valles,41.647559,2.3091778
Buzau,45.2692582,26.7748173
Darwin,-12.46044,130.8410469
Gwalior,26.2037247,78.1573628
Cairns,-16.9206657,145.7721854
Bengaluru,12.9767936,77.590082
Badalona,41.4493539,2.248254
Trimbach,48.9399791,8.0235967
Sunrise FL,26.1666888,-80.2787573
Caslano,45.9708722,8.8836544
Roda de Bara,41.1857961,1.4569904
Cuiaba,-15.5986686,-56.0991301
Sapporo,43.061936,141.3542924
Hradec Kralove,50.2092113,15.8327512
Sarajevo,43.8570713,18.4126147
La Nucia,38.6133727,-0.1257319
Esch-sur-Alzette,49.4959628,5.9850306
Nottingham,52.9534193,-1.1496461
Raanana,32.1860244,34.8678359
Eupen,50.6305665,6.0312717
HUAMANTLA,19.3233319,-97.9145665
Lucknow,26.8381,80.9346001
Lakewood CA,33.8503463,-118.117191
Maringa,-23.425269,-51.9382078
Uriage,45.1507233,5.8383075
Torello,44.4461218,7.1029197
Fuzhou,26.0774954,119.2918215
Punta del Este,-34.9632342,-54.9439981
Trelew,-43.2531242,-65.3094407
Santa Margherita di Pula,38.9581039,8.9592681
Forli,44.2227278,12.041273
Danderyd,59.4043647,18.0358505
Morelia,19.6546004,-101.2623797
Columbus,39.9622601,-83.0007065
Wellington,-41.2887953,174.7772114
Cap d'Agde,43.2845374,3.5117752
Nevers,46.9876601,3.1577203
Santa Tecla,13.673752,-89.2885987
Oslo,59.9133301,10.7389701
Tabasco,17.9999288,-92.6681659
Koszalin,54.2071799,16.2175411
Krsko,45.9576446,15.4946767
Orange Park FL,30.1654707,-81.7016346
Saarlouis,49.3164661,6.749846
Bistrita,47.1327012,24.4963949
Jakarta,-6.1754049,106.827168
Montesilvano,42.5136032,14.1516203
Lons-le-Saunier,46.6727037,5.5589973
Lujan,44.26833,11.3234319
Tianjin,39.3032619,117.4163641
Bologna,44.4938203,11.3426327
Maringá,-23.425269,-51.9382078
Carrara,44.0796519,10.0977529
Ajaccio+H,41.9190973,8.7912225
Valldoreix,41.4574698,2.0476516
Calabasas CA,34.1446643,-118.644097
Fayetteville AR,36.0625843,-94.1574328
Novi Sad,45.2551338,19.8451756
Phan Thiet,10.9028645,108.0632846
Lexington KY,38.0464066,-84.4970393
Vila Real de Santo António,37.1946052,-7.4155628
Troisdorf,50.8153071,7.1593271
Frascati,41.8082452,12.6803684
Värnamo,57.184902,14.0410977
Changwon,35.227956,128.6818586
Villach,46.6167284,13.8500268
Bhopal,23.2584857,77.401989
Telavi,41.9197221,45.4703169
South Bend,41.6833813,-86.2500066
Arlon,49.6834601,5.8167711
Edmond OK,35.6571367,-97.4649038
Castellon,40.2518568,-0.0615052
Ceska Lipa,50.6865452,14.5372974
Pescara,42.3102619,13.9575901
Kalmar,56.6628826,16.3662382
Split,43.5116383,16.4399659
Mosquera,4.7002001,-74.2385058
Antalya,36.8865728,30.7030242
Oegstgeest,52.185433,4.4738856
Ajaccio,41.9263991,8.7376029
Winston-Salem NC,36.0998131,-80.2440518
Harlingen TX,26.1907543,-97.6960599
Kashiwa,35.8676218,139.9756876
Gurb,41.9409869,2.2433019
Traralgon,-38.1946636,146.5381646
Reggio Emilia,44.6086674,10.5940667
Kassel,51.3157833,9.4978479
Columbus OH,39.9622601,-83.0007065
Andong,40.1237658,124.3821748
Hurghada,27.222556,33.8307062
Ibague,4.4386033,-75.2108857
Cervia,44.2609836,12.3495462
Netanya,32.3286181,34.8566246
Tavira,37.1262493,-7.6499121
Salta,-25.2269908,-64.5911956
Lambermont,50.8429244,4.3654807
Bragado,-35.1155766,-60.489771
Luzhou,28.5297899,105.5382725
Saint-Dizier,48.6371125,4.9473513
Tallahassee,30.4380832,-84.2809332
Tashkent,41.3123363,69.2787079
Ljubljana,46.0500268,14.5069289
Lima,-12.0459808,-77.0305912
San Jose,37.3361663,-121.890591
Casablanca,33.5945144,-7.6200284
Las Vegas NV,36.1674263,-115.1484131
Litija,46.0496825,14.9910757
Xativa,38.988085,-0.5200428
Austin TX,30.2711286,-97.7436995
Klagenfurt,46.623943,14.3075976
Southaven MS,34.9873822,-90.0034862
Vejle,55.707931,9.5329419
Chandigarh,30.7334421,76.7797143
Bakersfield CA,35.3738712,-119.019463
Barueri,-23.5112184,-46.8764612
Papamoa,-37.7026447,176.2843664
Loulé,37.1399532,-8.023324
Santander,43.4618932,-3.8100255
Zapopan,20.7211203,-103.3913671
Carnac,47.5836629,-3.0794428
Tbilisi,41.6934591,44.8014495
Huzhou,30.8942995,120.0851114
Opatija,45.3349238,14.3067834
Tucuman,-27.0448424,-65.3657954
Brasov,45.6525105,25.6105654
Sheffield,53.3806626,-1.4702278
Villena,38.6360967,-0.8659745
Los Angeles CA,34.0536909,-118.242766
Dubrovnik,42.6491029,18.0939501
Brcko,44.8771222,18.8095022
Luanda,-8.8272699,13.2439512
Bagnoles de l'Orne +H,48.5539388,-0.4229186
Denia,38.8408382,0.1061105
Yinchuan,38.4871699,106.2266569
Mulhouse,47.7467233,7.3389937
Bagneres-de-Bigorre,43.0658212,0.1530914
Bagnoles de l'Orne,48.5539388,-0.4229186
Rodez,44.3511408,2.5728493
Tauste,41.9202822,-1.2543731
Plaisir,48.817399,1.9476363
Bastia-Lucciana,42.5459392,9.4175597
Aarhus DEN,56.1589632,10.1915221
Addis Ababa ETH,9.0191999,38.7348362
Agadir MAR,30.4454734,-9.656961
Ahmedabad IND,23.0185001,72.6577647
Aktobe KAZ,50.295559,57.1746289
Albuquerque NM USA,35.0841034,-106.650985
Ann Arbor MI USA,42.2813722,-83.7484616
Antalya TUR,36.8997204,30.7625412
Arlon BEL,49.600173,5.8195961
Astana KAZ,51.1807653,71.374115
Asuncion PAR,-25.2964921,-57.6382576
Austin TX USA,30.2711286,-97.7436995
Bakersfield CA USA,35.3738712,-119.019463
Bali INA,-8.6764773,115.2180591
Bath GBR,47.7456459,12.9138728
Belem BRA,11.8537386,-15.6003395
Belgrade SRB,44.8025536,20.3827461
Bengaluru IND,12.9941023,77.7319134
Bhopal IND,23.2715818,77.4474775
Bhubaneswar IND,20.348261,85.8159418
Boca Raton FL USA,26.367379,-80.1737932
Boca Raton USA,26.3586885,-80.0830984
Bodrum TUR,37.0276907,27.3787643
Bologna ITA,44.5091977,11.3465674
Bolzano ITA,47.0,12.0
Brcko BIH,44.8771222,18.8095022
Brisbane AUS,-27.4348274,152.9889139
Brussels BEL,50.8662678,4.3490827
Bucaramanga COL,7.1097643,-73.110541
Budapest HUN,47.5230382,19.0766068
Buenos Aires ARG,-34.4708742,-58.6544118
Cairo EGY,30.0027074,31.4852259
Calabasas CA USA,34.1446643,-118.644097
Casablanca MAR,43.2983184,13.4534183
Castelo Branco POR,40.2405566,-7.5182904
Cattolica ITA,-25.5105117,-57.3630607
Champaign IL USA,40.1164841,-88.2430932
Champaign USA,40.1164841,-88.2430932
Chandigarh IND,30.7130349,76.8001084
Chennai IND,12.981131,80.252613
Cochabamba BOL,-17.3753639,-66.1619948
Columbus OH USA,39.9622601,-83.0007065
Columbus USA,39.9622601,-83.0007065
Cordoba ARG,-31.3851577,-64.1176495
Cordoba ESP,8.7381922,-75.8574364
Dallas TX USA,32.7762719,-96.7968559
Dallas USA,32.7762719,-96.7968559
Davangere IND,14.4245489,75.9370547
Decatur USA,39.8454163,-88.9524151
Dharwad IND,15.3598654,75.0466235
Doboj BIH,44.7324559,18.0850157
Doha QAT,25.2535572,51.5350608
Dublin IRL,53.403601,-6.2172435
East Lansing MI USA,42.7320307,-84.4721678
Edmond OK USA,35.6571367,-97.4649038
Edmonton CAN,-43.5556237,172.5159634
Edwardsville IL USA,38.8114364,-89.953157
Edwardsville USA,38.8114364,-89.953157
Esch-sur-Alzette LUX,49.5135575,5.9946781
Esch/Alzette LUX,49.4634985,6.0321399
Eupen BEL,50.6337886,6.0371924
Faro POR,37.1398628,-8.5882573
Fayetteville AR USA,36.0625843,-94.1574328
Figueira da Foz POR,40.1249538,-8.8626513
Frascati ITA,51.0505705,3.7141752
Fuzhou CHN,43.851948,125.3979227
Gentofte DEN,55.746415,12.541876
Gold Coast AUS,-28.0752851,153.3637173
Grasse FRA,43.5553368,7.0185492
Grenoble FRA,40.0006475,-83.0507572
Guatemala GUA,14.5832025,-90.5271541
Guiyang CHN,43.8965217,125.3218995
Gyula HUN,47.5243131,19.0749427
HUAMANTLA MEX,19.3217372,-97.9222774
Harlingen TX USA,26.1907543,-97.6960599
Harmon GUM,13.4864902,144.8020603
Hillcrest RSA,-29.775555,30.765556
Hong Kong HKG,22.2818333,114.1582831
Hradec Kralove CZE,50.1742056,15.7913145
Hua Hin THA,12.6368554,99.9510278
Huamantla MEX,19.3244197,-97.9212396
Huntsville AL USA,33.5599563,-86.8010317
Hurghada EGY,27.2532395,33.8297444
Huy BEL,50.4898135,5.2265498
Hyderabad IND,12.9714038,77.7068869
Hyvinkaa FIN,60.643189,24.8481895
Ibague COL,22.1546835,-100.8994277
Indore IND,22.7391478,75.8553317
Ipoh Perak MAS,4.6276983,101.135806
Irvine USA,33.6856969,-117.825981
Islamabad PAK,33.468563,73.1955884
Ithaca NY USA,42.4374175,-76.5483724
Jakarta INA,-6.2492432,106.8431572
Kalaburagi IND,17.3220827,76.8217278
Kayseri TUR,38.4888607,36.2683233
Kigali RWA,-2.0022208,30.092579
Kingston JAM,17.975215,-76.8175653
Kiseljak BIH,43.9431668,18.0774711
Koksijde BEL,51.1189622,2.6353332
Kolkata IND,12.9717655,77.7072893
Krakow POL,50.0909946,19.8434414
Kuala Lumpur MAS,3.119294,101.7249994
Kuching MAS,1.2059613,110.4285015
Kutaisi GEO,42.2612577,42.7149739
La Paz BOL,10.4313021,-75.5220195
Lajeado BRA,-23.529779,-46.395668
Lakewood CA USA,33.8503463,-118.117191
Lakewood USA,39.7085736,-105.0846694
Lambermont BEL,50.8690586,4.3841821
Las Vegas NV USA,36.1674263,-115.1484131
Lesa ITA,61.7478295,34.3116404
Lexington KY USA,38.0464066,-84.4970393
Lima PER,-7.900719,-34.898389
Ljubljana SLO,46.0632918,14.5520767
Lodz POL,51.7796742,19.4222777
Los Angeles CA USA,34.0536909,-118.242766
Los Angeles USA,52.5362296,13.5688341
Louisville KY USA,38.2542376,-85.759407
Louisville USA,38.2542376,-85.759407
Loule POR,37.1206511,-8.1442049
Loulé POR,37.1206511,-8.1442049
Luan CHN,13.743673,100.5047336
Lucknow IND,26.8851216,80.9484191
Madrid ESP,4.7279951,-74.284617
Malibu CA USA,34.035591,-118.689423
Malta MLT,35.9311442,14.3951627
Mandya IND,12.6182167,77.0735653
Maputo MOZ,-25.9403593,32.4071099
Marrakech MAR,31.6258257,-7.9891608
Mbombela RSA,-25.4729094,30.9772719
Montreal CAN,45.5137474,-73.6338787
Morelia MEX,19.3924313,-98.932872
Mosquera COL,42.8210833,-0.5844943
Mumbai IND,39.6159355,-86.0848063
Mysuru IND,12.3602331,76.633949
Nakhon Pathom THA,13.8122395,100.1317513
Nakhon Si Thammarat THA,8.5375114,99.9433513
Naples FL USA,26.1421976,-81.7942944
Neuquen ARG,-38.935972,-69.2466935
New Delhi IND,28.6285822,77.1257627
Nonthaburi THA,13.8748084,100.4559653
Norman OK USA,35.2225717,-97.4394816
Norman USA,35.2225717,-97.4394816
Orange Park FL USA,30.1654707,-81.7016346
Orlando FL USA,28.5479786,-81.4127842
Orlando USA,28.5421218,-81.379045
Osaka JPN,34.7349742,135.4945412
Oslo NOR,59.8973013,10.8051929
Padova ITA,45.5581777,11.8149683
Palm Coast FL USA,29.5541432,-81.2207673
Pardubice CZE,50.0954334,15.8077971
Pazardzhik BUL,42.1862392,24.3261789
Pensacola FL USA,30.421309,-87.2169149
Perth AUS,-31.8471093,115.8854014
Pittsburgh USA,40.4406968,-80.0025666
Portimao POR,37.1398628,-8.5882573
Porto POR,41.0850046,-8.4233519
Poznan POL,52.4085501,17.0294886
Prague CZE,50.049028,14.3137333
Pretoria RSA,-25.7459277,28.1879101
Prijedor BIH,44.9801369,16.7123704
Pszczyna POL,50.0179418,18.96245
Quito ECU,-0.219802,-78.4986442
Rabat MAR,41.268047,42.444237
Rancho Santa Fe CA USA,33.0242314,-117.1979781
Reggio Emilia ITA,44.6026332,10.7735531
Rio Cuarto ARG,-33.10934,-64.3041005
Rio de Janeiro BRA,-22.9009659,-43.1007932
Rochester NY USA,43.157285,-77.615214
Rochester USA,43.157285,-77.615214
Rome ITA,41.7956588,12.2555233
Rosario ARG,13.8258256,121.3895631
Rosario-Santa Fe ARG,-32.9747107,-60.7208589
Saint-Augustin CAN,5.2950868,-3.9512492
Salvador BRA,40.443705,-3.6381186
San Diego CA USA,32.7166921,-117.169295
San Diego USA,32.7174202,-117.162772
San Jose CRC,-34.8966724,-54.9537194
Santa Cruz BOL,9.0868801,-74.6902313
Santander ESP,41.0004237,-8.6391595
Santiago CHI,10.8080733,106.6665677
Santo Domingo DOM,18.4612807,-69.9167519
Santo Domingo Este DOM,18.510006,-69.8665152
Santo Domingo de los Tsachilas ECU,-0.2660169,-79.1649417
Sao Paulo BRA,-23.529779,-46.395668
Sarajevo BIH,43.8570713,18.4126147
Setubal POR,38.0646131,-8.7888791
Shanghai CHN,53.4238146,14.5595247
Shenzhen CHN,22.5453106,114.1055353
Shymkent KAZ,42.3532169,69.6396251
Singapore SGP,1.3196158,103.7002189
Sintra POR,38.7774259,-9.3172748
Skopje MKD,41.992571,21.4826856
Sofia BUL,14.8923941,120.7942091
South Bend USA,41.6833813,-86.2500066
Southaven MS USA,34.9873822,-90.0034862
Southaven USA,34.9873822,-90.0034862
Split CRO,43.5065219,16.4829739
Stellenbosch RSA,-33.934444,18.869167
Store SLO,35.6435832,-121.1917292
Sunrise FL USA,26.1666888,-80.2787573
Tabasco MEX,19.5896262,-99.0197497
Tainan TPE,25.0583596,121.5606555
Taipei TPE,25.0375198,121.5636796
Tallahassee FL USA,30.4380832,-84.2809332
Tallahassee USA,30.4380832,-84.2809332
Tanger MAR,38.643665,0.0468917
Tashkent UZB,41.0500912,69.165388
Tauranga NZL,-37.6615454,176.1904363
Tavira POR,37.0945589,-7.7030884
Tbilisi GEO,41.7327154,44.7883066
Telavi GEO,41.9224077,45.470068
Tianjin CHN,39.1693773,117.3875427
Tokyo JPN,35.6932804,139.7297105
Trento ITA,46.0680009,11.1207268
Trujillo PER,-8.1127548,-79.0344986
Tulsa OK USA,36.1563122,-95.9927516
Tulsa USA,36.1563122,-95.9927516
Uslar GER,10.475755,-66.9494149
Ust-Kamenogorsk KAZ,49.9490349,82.6394794
Valencia ESP,39.4670574,-0.3820707
Vejle DEN,55.7058593,9.5410776
Vero Beach FL USA,27.6387163,-80.3975399
Vic ESP,-38.2879402,144.9908661
Vila Real de Santo Antonio POR,37.175469,-7.5366859
Vila Real de Santo António POR,37.175469,-7.5366859
Villahermosa MEX,17.9742115,-92.9272266
Villavicencio COL,4.0778023,-73.6915639
Wesley Chapel FL USA,28.1866014,-82.366121
Weston FL USA,33.5363407,-79.0416178
Wichita KS USA,37.6922361,-97.3375448
Wichita USA,37.6922361,-97.3375448
Winston-Salem NC USA,36.0998131,-80.2440518
Wroclaw POL,51.0799222,17.0691007
Xalapa MEX,19.4756115,-99.0578782
Zagreb CRO,45.7955253,15.909272
Zapopan MEX,19.587189,-99.0290614
"Aarhus, Denmark",56.1496278,10.2134046
"Addis Ababa, ETH",9.0191999,38.7348362
"Agadir, Morocco",30.4205162,-9.5838532
"Ahmedabad, India",23.0215374,72.5800568
"Ajaccio, France",41.9263991,8.7376029
"Aktobe, Kazakhstan",50.2836938,57.2298129
"Alaminos, Cyprus",34.8068728,33.4344219
"Alaminos-Larnaca, Cyprus",34.7747994,33.4614931
"Albuquerque NM, United States",35.0607292,-106.519864
"Alcala de Henares, Spain",40.481954,-3.363981
"Alcalá de Henares, Spain",40.481954,-3.363981
"Aldershot, United Kingdom",51.2494169,-0.7630148
"Alkmaar, Netherlands",52.6008538,4.8170994
"Allershausen, Germany",48.4333967,11.6001317
"Almoradi, Spain",38.1096615,-0.7919322
"Altamura, Italy",40.8285595,16.5527314
"Amstelveen, Netherlands",52.2862177,4.8526493
"Anapoima, Colombia",4.5493011,-74.5359119
"Andong, South Korea",36.5634886,128.7260798
"Angers, France",47.4739884,-0.5515588
"Ann Arbor MI, United States",42.3108711,-83.691693
"Anning, China",24.8377491,102.4026832
"Anseong, South Korea",37.007773,127.279971
"Antalya, Turkey",36.8865728,30.7030242
"Arad, Romania",46.1753793,21.3196342
"Arequipa, Peru",-16.3988667,-71.5369607
"Arlon, Belgium",49.6834601,5.8167711
"Astana, Kazakhstan",51.1159933,71.4677059
"Asuncion, Paraguay",-25.2800459,-57.6343814
"Austin TX, United States",30.268082,-97.7483738
"Azay-le-Rideau, France",47.2614793,0.4667128
"Azul, Argentina",-36.777492,-59.863442
"Bacau, Romania",46.5560493,26.9153557
"Bad Waltersdorf, Austria",47.168506,16.0088882
"Badalona, Spain",41.4493539,2.248254
"Bagneres-de-Bigorre, France",43.0658212,0.1530914
"Bagnoles de l'Orne, France",48.5539388,-0.4229186
"Bakersfield CA, United States",35.3738712,-119.019463
"Bakio, Spain",43.4230397,-2.8142578
"Bali, Indonesia",-8.2271303,115.1919203
"Baotao, China",44.7250564,119.6063645
"Baotou, China",40.6174777,109.944912
"Barueri, Brazil",-23.5112184,-46.8764612
"Bastad, Sweden",56.4268963,12.8608789
"Bastia-Lucciana, France",42.554418,9.4821991
"Bath, United Kingdom",51.3813864,-2.3596963
"Belem, Brazil",-1.45056,-48.4682453
"Belgrade, Serbia",44.8153318,20.4456588
"Bengaluru, India",12.9767936,77.590082
"Benicarlo, Spain",40.4180244,0.4229813
"Bergamo, Italy",45.7566557,9.7542192
"Bhopal, India",23.2584857,77.401989
"Bhubaneswar, India",20.2602964,85.8394521
"Biella, Italy",45.5669538,8.086912
"Bielsko Biala, Poland",49.822118,19.0448936
"Bistrita, Romania",47.1327012,24.4963949
"Boca Raton FL, United States",26.367379,-80.1737932
"Boca Raton, United States",26.3586885,-80.0830984
"Bodrum, Turkey",37.0343987,27.430651
"Bol, Croatia",43.2605186,16.6520192
"Bologna, Italy",44.4938203,11.3426327
"Bolzano, Italy",46.6559455,11.2302129
"Bourg-en-Bresse, France",46.2051192,5.2250324
"Bragado, Argentina",-35.1155766,-60.489771
"Brasov, Romania",45.6525105,25.6105654
"Brcko, Bosnia and Herzegovina",44.8771222,18.8095022
"Bressuire, France",46.8425572,-0.4929017
"Brisbane, Australia",-27.4689623,153.0235009
"Brussels, Belgium",50.8467372,4.352493
"Bucaramanga, Colombia",7.1669842,-73.1047294
"Bucharest, Romania",44.4361414,26.102684
"Budapest, Hungary",47.4978789,19.0402383
"Buenos Aires, Argentina",-34.6095579,-58.3887904
"Burnie, Australia",-41.0523688,145.9064073
"Buschhausen, Germany",50.7677269,6.3022318
"Buzau, Romania",45.2692582,26.7748173
"CEUTA, Spain",35.888361,-5.304138
"Cadolzburg, Germany",49.4591406,10.8563868
"Cairns, Australia",-16.9206657,145.7721854
"Cairo, Egypt",30.0443879,31.2357257
"Calabasas CA, United States",34.1446643,-118.644097
"Caloundra, Australia",-26.7981633,153.1354434
"Caltanissetta, Italy",37.4902628,14.063284
"Canberra, Australia",-35.2975906,149.1012676
"Cap d'Agde, France",43.2845374,3.5117752
"Carnac, France",47.5836629,-3.0794428
"Carrara, Australia",-28.02077,153.3683962
"Casablanca, Morocco",33.5945144,-7.6200284
"Caslano, Switzerland",45.9708722,8.8836544
"Castelldefels, Spain",41.2861022,1.9824173
"Castellon, Spain",40.2518568,-0.0615052
"Castelo Branco, Portugal",39.9767583,-7.4460599
"Cattolica, Italy",43.9639933,12.7441515
"Celje, Slovenia",46.2293889,15.2616828
"Cervia, Italy",44.2609836,12.3495462
"Ceska Lipa, Czech Republic",50.6865452,14.5372974
"Ceuta, Spain",35.888361,-5.304138
"Chacabuco, Argentina",-32.7414522,-65.2061252
"Champaign IL, United States",39.8937537,-87.9377898
"Champaign, United States",40.1164841,-88.2430932
"Chandigarh, India",30.7334421,76.7797143
"Changwon, South Korea",35.227956,128.6818586
"Chennai, India",13.0836939,80.270186
"Chieti, Italy",42.1026928,14.4159053
"Cluj Napoca, Romania",46.769379,23.5899542
"Cochabamba, Bolivia",-17.4012458,-66.1675681
"Columbus OH, United States",40.1246672,-83.0868282
"Columbus, United States",39.9622601,-83.0007065
"Concepcion, Chile",-36.8270698,-73.0502064
"Constanta, Romania",44.1767161,28.6507598
"Coquimbo, Chile",-30.7546652,-70.9005536
"Cordoba, Spain",37.8845813,-4.7760138
"Creteil, France",48.7771486,2.4530731
"Criciuma, Brazil",-28.6789941,-49.3695627
"Cuiaba, Brazil",-15.5986686,-56.0991301
"Curtea de Arges, Romania",45.1469341,24.6779826
"Daegu, South Korea",35.8713,128.6018
"Dallas TX, United States",32.8350573,-97.2983175
"Dallas, United States",32.7762719,-96.7968559
"Danderyd, Sweden",59.4043647,18.0358505
"Darwin, Australia",-12.46044,130.8410469
"Davangere, India",14.4661266,75.9206361
"Deauville, France",49.3595018,0.0746638
"Decatur, United States",39.8454163,-88.9524151
"Denia, Spain",38.8408382,0.1061105
"Dharwad, India",15.3707296,75.1332867
"Doboj, Bosnia and Herzegovina",44.7324559,18.0850157
"Doha, QAT",25.2678234,51.5587853
"Dublin, Ireland",53.3493795,-6.2605593
"Dubrovnik, Croatia",42.6491029,18.0939501
"Duffel, Belgium",51.0957176,4.5061988
"East Lansing MI, United States",42.7320307,-84.4721678
"Edgbaston, United Kingdom",52.4709941,-1.9225861
"Edmond OK, United States",35.657971,-97.4801373
"Edmonton, Canada",53.5462055,-113.491241
"Edwardsville IL, United States",38.7296083,-89.8845138
"Edwardsville, United States",38.8114364,-89.953157
"Eindhoven, Netherlands",51.4485569,5.4501225
"Elvas, Portugal",38.8806123,-7.1637237
"Esch-sur-Alzette, Luxembourg",49.4959628,5.9850306
"Esch/Alzette, Luxembourg",49.5036259,5.9487155
"Eupen, Belgium",50.6305665,6.0312717
"Falun, Sweden",60.6070068,15.6323059
"Faro, Portugal",37.0162944,-7.935182
"Fayetteville AR, United States",36.1207807,-94.1370087
"Feira de Santana, Brazil",-12.2578934,-38.9598047
"Figueira da Foz, Portugal",40.1485808,-8.855655
"Foggia, Italy",41.5028106,15.4528939
"Forbach, France",49.1862822,6.8958562
"Forli, Italy",44.2227278,12.041273
"Frankfurt am Main, Germany",50.1106444,8.6820917
"Frankfurt, Germany",50.1106444,8.6820917
"Frascati, Italy",41.8082452,12.6803684
"Fuzhou, China",26.0774954,119.2918215
"Gandia, Spain",38.9675925,-0.1803423
"Gentofte, Denmark",55.7535946,12.541436
"Getxo, Spain",43.3431164,-3.0078627
"Gijon, Spain",43.5449422,-5.66275
"Gijón, Spain",43.5449422,-5.66275
"Gimcheon, South Korea",36.1398035,128.1139534
"Glasgow, United Kingdom",55.861155,-4.2501687
"Gold Coast, Australia",-28.0023731,153.4145987
"Grado, Italy",45.6781065,13.3979091
"Grasse, France",43.6589011,6.9239103
"Grenoble, France",45.1875602,5.7357819
"Grodzisk Mazowiecki, Poland",52.1066223,20.6313441
"Guatemala, GUA",14.5832025,-90.5271541
"Gubbio, Italy",43.3517605,12.5772959
"Guiyang, China",26.5878031,106.7086936
"Gurb, Spain",41.9409869,2.2433019
"Gwalior, India",26.2037247,78.1573628
"Gyula, Hungary",46.6438656,21.2747575
"HUAMANTLA, Mexico",19.3233319,-97.9145665
"Hamilton, New Zealand",-37.7878809,175.281788
"Hammamet, Tunisia",36.4012665,10.5572827
"Haren, Netherlands",53.1709841,6.6061413
"Harlingen TX, United States",26.1907543,-97.6960599
"Harmon, GUM",13.4864902,144.8020603
"Hazebrouck, France",50.7226113,2.5360331
"Heraklion, Greece",35.33908,25.1332843
"Herzlia, Israel",32.1656255,34.8469023
"Hillcrest, South Africa",-29.775555,30.765556
"Hinode, Japan",35.7423436,139.2574768
"Hong Kong, Hong Kong",22.2818333,114.1582831
"Hradec Kralove, Czech Republic",50.2092113,15.8327512
"Hrastnik, Slovenia",46.1349361,15.1175752
"Hua Hin, Thailand",12.5699326,99.9573437
"Huamantla, Mexico",19.3233319,-97.9145665
"Huntsville AL, United States",33.5644765,-86.7965023
"Hurghada, Egypt",27.222556,33.8307062
"Huy, Belgium",50.5180856,5.2408138
"Huzhou, China",30.8942995,120.0851114
"Hyderabad, India",17.360589,78.4740613
"Hyvinkaa, Finland",60.6311481,24.8603615
"Ibague, Colombia",4.4386033,-75.2108857
"Idanha-a-Nova, Portugal",39.9260883,-7.2436356
"Indore, India",22.7203616,75.8681996
"Ipoh Perak, MAS",4.6276983,101.135806
"Irvine, United States",33.6856969,-117.825981
"Islamabad, Pakistan",33.6938118,73.0651511
"Ithaca NY, United States",42.4420456,-76.4970754
"Jablonec nad Nisou, Czech Republic",50.7240899,15.1710958
"Jakarta, Indonesia",-6.1754049,106.827168
"Javea, Spain",38.7893804,0.1634168
"Joinville, Brazil",-26.3044898,-48.8486726
"Kachreti, Georgia",41.6733766,45.6745112
"Kalaburagi, India",17.2408957,76.7697439
"Kalmar, Sweden",56.6628826,16.3662382
"Kamen, Germany",51.5918019,7.6616804
"Karuizawa, Japan",36.3482938,138.5969968
"Kashiwa, Japan",35.8676218,139.9756876
"Kassel, Germany",51.3157833,9.4978479
"Kayseri, Turkey",38.7219011,35.4873214
"Kigali, RWA",-2.0022208,30.092579
"Kingston, JAM",17.975215,-76.8175653
"Kiseljak, Bosnia and Herzegovina",43.9431668,18.0774711
"Klagenfurt, Austria",46.623943,14.3075976
"Klosters, Switzerland",46.8829097,9.8750678
"Koksijde, Belgium",51.1187723,2.6349277
"Kolkata, India",22.5726459,88.3638953
"Koszalin, Poland",54.2071799,16.2175411
"Kotka, Finland",60.4672673,26.9459462
"Kottingbrunn, Austria",47.9513587,16.2285187
"Krakow, Poland",50.0469432,19.9971534
"Kramsach, Austria",47.4450519,11.8808259
"Kranjska Gora, Slovenia",46.4502123,13.8434055
"Krsko, Slovenia",45.9576446,15.4946767
"Kuala Lumpur, MAS",3.119294,101.7249994
"Kuching, MAS",1.2059613,110.4285015
"Kursumlijska Banja, Serbia",43.0578755,21.2550485
"Kutaisi, Georgia",42.2716078,42.7054475
"La Nucia, Spain",38.6133727,-0.1257319
"La Paz, Bolivia",-16.4955455,-68.1336229
"La Plata, Argentina",-34.9206797,-57.9537638
"Lajeado, Brazil",-29.4671522,-51.9624046
"Lakewood CA, United States",33.8503463,-118.117191
"Lakewood, United States",39.7085736,-105.0846694
"Lambermont, Belgium",50.8429244,4.3654807
"Lannion, France",48.7322183,-3.4587994
"Las Palmas de Gran Canaria, Spain",28.1288694,-15.4349015
"Las Vegas NV, United States",36.1494569,-115.2063755
"Launceston, Australia",-41.4340813,147.1373496
"Lausanne, Switzerland",46.5218269,6.6327025
"Laval, Canada",45.5571125,-73.7211779
"Les Franqueses del Valles, Spain",41.647559,2.3091778
"Lesa, Italy",45.829644,8.5648573
"Lexington KY, United States",37.7703871,-84.3130374
"Lima, Peru",-12.0459808,-77.0305912
"Limassol, Cyprus",34.6852901,33.0332657
"Litija, Slovenia",46.0496825,14.9910757
"Ljubljana, Slovenia",46.0500268,14.5069289
"Lodz, Poland",51.7687323,19.4569911
"Londrina, Brazil",-23.4761271,-51.1179013
"Lons-le-Saunier, France",46.6727037,5.5589973
"Los Angeles CA, United States",34.625739,-118.0826393
"Los Angeles, United States",34.0536909,-118.242766
"Loughborough, United Kingdom",52.7723859,-1.2077985
"Louisville KY, United States",38.3276688,-85.6345672
"Louisville, United States",38.2542376,-85.759407
"Loule, Portugal",37.1399532,-8.023324
"Loulé, Portugal",37.1399532,-8.023324
"Louny, Czech Republic",50.3572914,13.7969195
"Luan, China",39.7629676,118.6588085
"Lucknow, India",26.8381,80.9346001
"Lujan, Argentina",-34.5661734,-59.1152598
"Luque, Paraguay",-25.2665417,-57.4926928
"Luzhou, China",28.5297899,105.5382725
"Maanshan, China",31.6866105,118.5048377
"Maceio, Brazil",-9.6476843,-35.7339264
"Madrid, Spain",40.416782,-3.703507
"Malibu CA, United States",34.035591,-118.689423
"Manacor, Spain",39.5696458,3.2106461
"Mandya, India",12.6368939,76.7275477
"Maputo, MOZ",-25.9403593,32.4071099
"Mar Del Plata, Argentina",-37.9976168,-57.5482079
"Marburg, Germany",50.8090106,8.7704695
"Maribor, Slovenia",46.5576439,15.6455854
"Maringa, Brazil",-23.425269,-51.9382078
"Maringá, Brazil",-23.425269,-51.9382078
"Marrakech, Morocco",31.6258257,-7.9891608
"Martos, Spain",37.7222633,-3.9703241
"Mataro, Spain",41.5399994,2.4448577
"Mbombela, South Africa",-25.4729094,30.9772719
"Meerbusch, Germany",51.2652237,6.6760958
"Melilla, Spain",35.2918698,-2.9409026
"Mendoza, Argentina",-34.5970325,-68.7304797
"Messina, Italy",38.1937571,15.5542082
"Metzingen, Germany",48.5397247,9.2831201
"Metzinger, Germany",48.7417244,9.1720691
"Mildura, Australia",-34.195274,142.1503146
"Mistelbach, Austria",48.5694535,16.5720327
"Mogi das Cruzes, Brazil",-23.5234284,-46.1926671
"Monastir, Tunisia",35.7707582,10.8280511
"Montauban, France",44.0175835,1.3549991
"Montesilvano, Italy",42.5136032,14.1516203
"Montreal, Canada",45.5031824,-73.5698065
"Morelia, Mexico",19.6546004,-101.2623797
"Mosquera, Colombia",4.7002001,-74.2385058
"Most, Czech Republic",50.5032737,13.636112
"Mulhouse, France",47.7467233,7.3389937
"Mumbai, India",19.054999,72.8692035
"Mungia, Spain",43.3617398,-2.8350746
"Muttenz, Switzerland",47.525113,7.6477401
"Mysuru, India",12.3041464,76.6529521
"Nakhon Pathom, Thailand",13.8918425,100.0165659
"Nakhon Si Thammarat, Thailand",8.6772337,99.7309635
"Naples FL, United States",26.1731951,-81.7704161
"Netanya, Israel",32.3286181,34.8566246
"Neuquen, Argentina",-38.8502546,-69.832275
"Nevers, France",46.9876601,3.1577203
"New Delhi, India",28.6138954,77.2090057
"Nishi-Tokyo, Japan",35.6926888,139.6961241
"Nonthaburi, Thailand",13.8610918,100.3456772
"Norman OK, United States",35.2205427,-97.4953397
"Norman, United States",35.2225717,-97.4394816
"Norwich, United Kingdom",52.6285576,1.2923954
"Nottingham, United Kingdom",52.9534193,-1.1496461
"Nova Gorica, Slovenia",45.9581509,13.6474998
"Novi Sad, Serbia",45.2551338,19.8451756
"Nussloch, Germany",49.3228653,8.6959385
"Nyiregyhaza, Hungary",47.9557802,21.7167982
"Oberhaching, Germany",48.0261846,11.5962489
"Oegstgeest, Netherlands",52.185433,4.4738856
"Offenbach, Germany",50.1055002,8.7610698
"Olavarria, Argentina",-36.8938752,-60.3231676
"Oldenzaal, Netherlands",52.3116616,6.9241615
"Ollersbach, Austria",48.1873864,15.8440588
"Opatija, Croatia",45.3349238,14.3067834
"Oradea, Romania",47.0549163,21.9285231
"Orange Park FL, United States",28.549571,-81.293689
"Orlando FL, United States",28.5479786,-81.4127842
"Orlando, United States",28.5421218,-81.379045
"Osaka, Japan",34.6937569,135.5014539
"Osijek, Croatia",45.5548793,18.6953685
"Oslo, Norway",59.9133301,10.7389701
"Otopeni, Romania",44.5507941,26.0729271
"Oviedo, Spain",43.3533452,-5.8795096
"Padova, Italy",45.391408,11.8058487
"Palm Coast FL, United States",29.5541432,-81.2207673
"Palmanova, Spain",39.5237047,2.5383777
"Papamoa, New Zealand",-37.6972669,176.2848286
"Pardubice, Czech Republic",50.0385812,15.7791356
"Pazardzhik, Bulgaria",42.1486841,24.1531871
"Pensacola FL, United States",30.4438233,-87.2156403
"Perth, Australia",-31.9558967,115.8605784
"Perugia, Italy",43.1070321,12.4029962
"Pescara, Italy",42.3102619,13.9575901
"Pirot, Serbia",43.1547342,22.5865039
"Pitesti, Romania",44.8572882,24.8721156
"Pittsburgh, United States",40.4406968,-80.0025666
"Plaisir, France",48.817399,1.9476363
"Poitiers, France",46.5802596,0.340196
"Pontevedra, Spain",42.428065,-8.6041447
"Poprad, Slovakia",49.0541521,20.2976401
"Porec, Croatia",45.2271961,13.5957333
"Portimao, Portugal",37.1375808,-8.5368426
"Porto, Portugal",41.1502195,-8.6103497
"Poznan, Poland",52.4082663,16.9335199
"Pozzuoli, Italy",40.822643,14.1219109
"Prague, Czech Republic",50.0874654,14.4212535
"Pretoria, South Africa",-25.7459277,28.1879101
"Prijedor, Bosnia and Herzegovina",44.9801369,16.7123704
"Pszczyna, Poland",49.9778089,18.9423721
"Punta del Este, Uruguay",-34.9632342,-54.9439981
"Quillota, Chile",-32.879997,-71.2473555
"Quinta Do Lago, Portugal",37.8037119,-8.6849265
"Quinta do Lago, Portugal",37.8037119,-8.6849265
"Quito, Ecuador",-0.2201641,-78.5123274
"Raanana, Israel",32.1860244,34.8678359
"Rabat, Morocco",34.0218454,-6.8408929
"Rancho Santa Fe CA, United States",33.0183597,-117.2026294
"Recife, Brazil",-8.0584933,-34.8848193
"Reggio Emilia, Italy",44.6086674,10.5940667
"Reus, Spain",41.1555564,1.1076133
"Ribeirao Preto, Brazil",-21.1776315,-47.8100983
"Rio Cuarto, Argentina",-33.1237585,-64.3489782
"Rio de Janeiro, Brazil",-22.9110137,-43.2093727
"Rochester NY, United States",43.1576414,-77.6133531
"Rochester, United States",43.157285,-77.615214
"Roda de Bara, Spain",41.1857961,1.4569904
"Rodez, France",44.3511408,2.5728493
"Roehampton, United Kingdom",51.4498773,-0.2412672
"Rognac, France",43.4872341,5.2342903
"Rome, Italy",41.8933203,12.4829321
"Rosario, Argentina",-32.9593609,-60.6617024
"Rosario-Santa Fe, Argentina",-32.9261741,-60.7390697
"Rosbach, Germany",50.2990872,8.6967275
"Rovinj, Croatia",45.0807411,13.6417282
"Saarlouis, Germany",49.3164661,6.749846
"Sabadell, Spain",41.5460801,2.1083214
"Saint Dizier, France",48.6371125,4.9473513
"Saint-Augustin, Canada",51.2252759,-58.6494821
"Saint-Augustin-de-Desmaures, Canada",46.743354,-71.4569733
"Saint-Dizier, France",48.6371125,4.9473513
"Salta, Argentina",-25.2269908,-64.5911956
"Salvador, Brazil",-12.9822499,-38.4812772
"San Diego CA, United States",32.7166921,-117.169295
"San Diego, United States",32.7174202,-117.162772
"San Gregorio di Catania, Italy",37.565254,15.111788
"San Jose, CRC",-34.8966724,-54.9537194
"San Salvador de Jujuy, Argentina",-24.1852569,-65.2994789
"Santa Cruz do Sul, Brazil",-29.714209,-52.4285807
"Santa Cruz, Bolivia",-17.7834217,-63.1820853
"Santa Margherita di Pula, Italy",38.9581039,8.9592681
"Santander, Spain",43.4618932,-3.8100255
"Santo Domingo Este, Dominican Republic",18.4936515,-69.8383703
"Santo Domingo de los Tsachilas, Ecuador",-0.3158526,-79.2224149
"Santo Domingo, Dominican Republic",18.4713858,-69.8918436
"Sanxenxo, Spain",42.4220772,-8.8353365
"Sao Paulo, Brazil",-23.5506507,-46.6333824
"Sapporo, Japan",43.061936,141.3542924
"Sarajevo, Bosnia and Herzegovina",43.8570713,18.4126147
"Sarreguemines, France",49.1094836,7.0708865
"Satu Mare, Romania",47.7891763,22.8725598
"Segrate, Italy",45.4907352,9.2948204
"Selva Gardena, Italy",46.5551877,11.7600992
"Setubal, Portugal",38.5241783,-8.8932341
"Shanghai, China",31.2312707,121.4700152
"Sheffield, United Kingdom",53.3806626,-1.4702278
"Shenzhen, China",22.5445741,114.0545429
"Sherbrooke, Canada",45.403271,-71.889038
"Shymkent, Kazakhstan",42.3146962,69.5883282
"Singapore, SGP",1.3196158,103.7002189
"Sintra, Portugal",38.8355446,-9.3522371
"Sion, Switzerland",46.2311749,7.3588795
"Skopje, North Macedonia",41.9962164,21.4318935
"Slobozia, Romania",44.5635999,27.3618477
"Slovenj Gradec, Slovenia",46.509144,15.0790677
"Slovenska Bistrica, Slovenia",46.4073813,15.5635933
"Sofia, Bulgaria",42.6977028,23.3217359
"South Bend, United States",41.6833813,-86.2500066
"Southaven MS, United States",34.9873822,-90.0034862
"Southaven, United States",34.9873822,-90.0034862
"Split, Croatia",43.5116383,16.4399659
"Stellenbosch, South Africa",-33.934444,18.869167
"Store, Slovenia",46.1979164,15.3276728
"Sunderland, United Kingdom",54.9058512,-1.3828727
"Sunrise FL, United States",26.1666888,-80.2787573
"Swan Hill, Australia",-35.3390784,143.5588436
"Szabolcsveresmart, Hungary",48.2924404,22.019809
"Szczawno, Poland",51.4388599,18.7942608
"Szentendre, Hungary",47.6677606,19.0760467
"Tabasco, Mexico",17.9999288,-92.6681659
"Tainan, Taiwan",22.9912348,120.184982
"Taipei, Taiwan",25.0375198,121.5636796
"Takasaki, Japan",36.3220984,139.0032758
"Tallahassee FL, United States",30.4387238,-84.3203972
"Tallahassee, United States",30.4380832,-84.2809332
"Tamworth, Australia",-31.0900743,150.9290159
"Tanagura, Japan",37.0299106,140.3795451
"Tanger, Morocco",35.7696302,-5.8033522
"Targu Jiu, Romania",45.0422947,23.2728118
"Targu Mures, Romania",46.5446253,24.561196
"Tarragona, Spain",41.1172364,1.2546057
"Tashkent, Uzbekistan",41.3123363,69.2787079
"Tauranga, New Zealand",-37.6859006,176.167505
"Tauste, Spain",41.9202822,-1.2543731
"Tavira, Portugal",37.1262493,-7.6499121
"Tbilisi, Georgia",41.6934591,44.8014495
"Telavi, Georgia",41.9197221,45.4703169
"Telde, Spain",27.9984538,-15.4166761
"Telfs, Austria",47.3046511,11.071515
"The Hague, Netherlands",52.0799838,4.3113461
"Tianjin, China",39.3032619,117.4163641
"Timaru, New Zealand",-44.3930254,171.2509786
"Tokyo, Japan",35.6768601,139.7638947
"Torello, Spain",42.0478304,2.2643391
"Toulouse-Balma, France",43.6085352,1.4922596
"Traralgon, Australia",-38.1946636,146.5381646
"Trelew, Argentina",-43.2531242,-65.3094407
"Trento, Italy",46.1029536,11.1297425
"Trier, Germany",49.7596208,6.6441878
"Trimbach, Switzerland",47.3631152,7.9023314
"Trnava, Slovakia",48.374218,17.5809299
"Trois-Rivières, Canada",46.3432325,-72.5428485
"Troisdorf, Germany",50.8153071,7.1593271
"Trujillo, Peru",-8.1116778,-79.0287742
"Tsaghkadzor, Armenia",40.5153508,44.672146
"Tsukuba, Japan",36.0833265,140.077279
"Tucuman, Argentina",-27.0448424,-65.3657954
"Tulsa OK, United States",36.1491852,-95.8621694
"Tulsa, United States",36.1563122,-95.9927516
"Turku, Finland",60.4515932,22.2669991
"Ueberlingen, Germany",47.7664456,9.1605106
"Umag, Croatia",45.4323587,13.5224098
"Uriage, France",45.1507233,5.8383075
"Uslar, Germany",51.658901,9.6347785
"Ust-Kamenogorsk, Kazakhstan",49.9484438,82.6274791
"Vaasa, Finland",63.0957722,21.6159187
"Vale do Lobo, Portugal",40.6047799,-8.2416254
"Valencia, Spain",39.4697065,-0.3763353
"Valldoreix, Spain",41.4574698,2.0476516
"Varnamo, Sweden",57.184902,14.0410977
"Vaxjo, Sweden",56.8787183,14.8094385
"Veigy-Foncenex, France",46.2695471,6.2567358
"Vejle, Denmark",55.707931,9.5329419
"Vero Beach FL, United States",27.6391177,-80.3979825
"Vic, Spain",41.9302021,2.2545943
"Vienna, Austria",48.2083537,16.3725042
"Vigo, Spain",42.1986395,-8.727956
"Vila Real de Santo Antonio, Portugal",37.1946052,-7.4155628
"Vila Real de Santo António, Portugal",37.1946052,-7.4155628
"Villa Maria, Argentina",-32.4106245,-63.2435809
"Villach, Austria",46.6167284,13.8500268
"Villahermosa, Mexico",17.9884657,-92.9366326
"Villavicencio, Colombia",4.1114595,-73.4967836
"Villena, Spain",38.6360967,-0.8659745
"Villeneuve-Loubet, France",43.6579947,7.1217592
"Villers-les-Nancy, France",48.6731344,6.1536378
"Villers-lès-Nancy, France",48.6731344,6.1536378
"Vilnius, Lithuania",54.6870458,25.2829111
"Vrhnika, Slovenia",45.9475554,14.2875904
"Värnamo, Sweden",57.184902,14.0410977
"Warmbad Villach, Austria",46.5887498,13.8287113
"Wellington, New Zealand",-41.2887953,174.7772114
"Wels, Austria",48.1565472,14.0243752
"Wesley Chapel FL, United States",28.1866014,-82.366121
"Weston FL, United States",33.5363407,-79.0416178
"Wetzlar, Germany",50.570561,8.531245
"Wichita KS, United States",37.6919295,-97.3375557
"Wichita, United States",37.6922361,-97.3375448
"Winston-Salem NC, United States",36.0962368,-80.2460992
"Wodonga, Australia",-36.1205539,146.8880837
"Wroclaw, Poland",51.1089776,17.0326689
"Wuning, China",29.2777525,115.0476181
"Xalapa, Mexico",19.5408338,-96.9146374
"Xativa, Spain",38.988085,-0.5200428
"Yanagawa City, Japan",33.1170145,130.3811412
"Yanagawa, Japan",33.1630969,130.4058091
"Yerba Buena, Argentina",-26.8121581,-65.2981714
"Yinchuan, China",38.4871699,106.2266569
"Ystad, Sweden",55.4295203,13.8201171
"Zagreb, Croatia",45.8130967,15.9772795
"Zapopan, Mexico",20.7211203,-103.3913671
"Zaragoza, Spain",41.6915847,-0.9101268
"Zlatibor, Serbia",43.6742413,19.6124633
"Al Zahra, Kuwait",29.2713891,48.0041915
"Brazzaville, Republic of the Congo",-4.2694407,15.2712256
"Gaborone, Botswana",-24.6581357,25.9088474
"Kampala, Uganda",0.3177137,32.5813539
"Kish Island, Iran",26.5350665,53.9719803
"Luanda, Angola",-8.8272699,13.2439512
"Malta, Malta",35.9022113,14.4137381
"Manama, Bahrain",26.2235041,50.5822436
"Phan Thiet, Vietnam",10.9028645,108.0632846
"Santa Tecla, El Salvador",13.673752,-89.2885987
"Tacarigua, Trinidad and Tobago",10.6437356,-61.361173
"Tehran, Iran",35.6892523,51.3896004
"Zahra, Kuwait",29.2755879,47.9997683
"Addis Ababa, Ethiopia",9.0358119,38.7524315
"Doha, Qatar",25.3108807,51.5081812
"Harmon, Guam",13.5067837,144.8100254
"Ipoh Perak, Malaysia",4.5570781,101.1154345
"Kigali, Rwanda",-1.9534357,30.1140089
"Kingston, Jamaica",17.9712148,-76.7928128
"Kuala Lumpur, Malaysia",3.1516964,101.6942371
"Kuching, Malaysia",1.5597561,110.345397
"Maputo, Mozambique",-25.966213,32.56745
"San Jose, Costa Rica",9.9327707,-84.0796144
"Singapore, Singapore",1.2899175,103.8519072
"Qiandaohu, China",29.7377193,119.1868632
"Sharm el-Sheikh, Egypt",27.8644422,34.295447
Abidjan 1,5.3426199,-3.9223814
Abidjan 2,5.3193449,-4.0174779
Aix En Provence,43.5298424,5.4474738
Aix-en-Provence,43.5298424,5.4474738
Alicante,38.3436365,-0.4881708
Amersfoort,52.1637703,5.4088845
Antofagasta,-23.6463741,-70.3980033
Augsburg,48.3690341,10.8979522
Barletta,41.3214976,16.2868696
Barranquilla,10.9938599,-74.7926118
Baton Rouge,30.4494155,-91.1869659
Bengaluru 2,12.9767936,77.590082
Bengaluru 3,12.9767936,77.590082
Biel-Bienne,47.1402077,7.2439029
Birmingham,52.4948994,-1.8518439
Blois,47.5876861,1.3337639
Bloomfield Hills,42.583645,-83.2454883
"Bogota, Colombia",4.6533817,-74.0836331
Bonn,50.7352621,7.1024635
Bordeaux,44.841225,-0.5800364
Braga,41.5510583,-8.4280045
Brasilia,-10.3333333,-53.2
Bratislava,48.1516988,17.1093063
Bratislava 2,43.8509143,25.9907186
Braunschweig,52.2646577,10.5236066
Brest,48.3905283,-4.4860088
Brisbane 1,-27.6280079,152.8719958
Brisbane 2,-27.6240906,152.9547089
Brisbane 3,-27.6284184,152.8719059
Buenos Aires 1,29.1046432,-110.9041266
Buenos Aires 2,19.473889,-96.393889
Buenos Aires Tigre,-34.4235341,-58.5817628
Bunschoten,52.2466546,5.3571571
Burnie 2,55.6444364,26.5583815
Busan,35.1799528,129.0752365
Cagliari,39.2171994,9.113311
Calgary,51.0456064,-114.057541
"Cali, Colombia",3.4108435,-76.5812127
Campinas,-22.9056391,-47.059564
Cancun,21.1527467,-86.8425761
Cap Cana,18.5044392,-68.3830103
Cary,35.7882893,-78.7812081
Cassis,43.2140359,5.5396318
Centurion 1,39.849988,-89.629843
Centurion 2,39.849914,-89.630034
Cesenatico,44.1999283,12.3969692
Charleston,32.7884363,-79.9399309
Charlottesville,38.029306,-78.4766781
Cherbourg,49.6425343,-1.6249565
Chicago,41.8755616,-87.6244212
Chisinau,47.0245117,28.8322923
Cleveland,41.4996574,-81.6936772
Como,45.9394759,9.1494101
Cordenons,45.9881831,12.7067897
Costa do Sauipe,-12.4391251,-37.9233062
Cuernavaca,18.9331321,-99.2599579
Curitiba,-25.4295963,-49.2712724
Dobrich,43.6637775,27.9002123
Drummondville,45.8864303,-72.5018764
Fairfield,39.7886111,-82.6418883
Florianopolis,-27.5973002,-48.5496098
Francavilla Al Mare,42.4168011,14.2914819
Francavilla al Mare,42.4168011,14.2914819
Genoa,44.40726,8.9338624
Girona,41.9793006,2.8199439
Granby,45.3990409,-72.721834
Guangzhou,23.1288454,113.2590064
Guangzhou Huangpu,23.1829981,113.4748416
Guayaquil,-2.1900572,-79.8868669
Gwangju,35.1594647,126.8515034
Hagen,51.3582945,7.473296
Heilbronn,49.142291,9.218655
Helsinki,60.1666204,24.9435408
Hersonissos 1,35.3107582,25.4007689
Hersonissos 2,35.310662,25.4005722
Hersonissos 3,35.308168,25.3720231
Hersonissos 4,35.308168,25.3720231
Hersonissos 5,35.308168,25.3720231
Hersonissos 6,35.308168,25.3720231
Iasi,47.1615598,27.5837814
Ilkley,53.9257254,-1.824441
Indian Wells 1,33.106005,-96.8517242
Indian Wells 2,33.105767,-96.8516657
Ismaning,48.2242434,11.6715263
Istanbul,41.006381,28.9758715
Itajai,-26.9046787,-48.6552979
Jinan,36.6519754,117.1138479
Jingshan,31.0161047,113.1280679
Jiujiang,29.388607,115.3820227
Karlsruhe,49.0068705,8.4034195
Kigali 1,-2.0015614,30.0912587
Kigali 2,-1.9778233,30.0868137
Knoxville,35.9603948,-83.9210261
Kobe,34.6932379,135.1943764
Koblenz,50.3533278,7.5943951
Kosice,50.1797445,15.5349958
Las Vegas,36.1674263,-115.1484131
Leon,31.2715127,-95.9953382
Les Franqueses Del Valles,41.647559,2.3091778
Lexington,38.0464066,-84.4970393
Liberec,50.7702648,15.0583947
Lille,50.6365654,3.0635282
Lima 2,-31.4127074,-64.1825169
Lima Los Inkas,-12.0811058,-76.9663895
Lincoln,40.8088861,-96.7077751
Lisbon,38.7077507,-9.1365919
Little Rock,34.7465071,-92.2896267
Luedenscheid,51.218137,7.6396975
Lugano,46.0038007,8.9512275
Lyon 2,45.7760306,4.8349577
Maia,41.2373456,-8.6299982
Malaga,36.7647913,-4.4422005
Manama 2,26.2235041,50.5822436
Manzanillo,41.586343,-4.189038
Maspalomas,27.7527731,-15.5970832
Matsuyama,33.8395188,132.7653521
Mauthausen,48.2404063,14.5162667
Medellin,6.2697324,-75.6025597
Menorca,39.9492572,4.0499642
Merida,38.9174665,-6.3443977
Metepec,19.2511338,-99.5937281
Mexico City,19.3207722,-99.1514678
Milan,45.4641943,9.1896346
Miyazaki,32.097681,131.294542
Modena,44.5384728,10.9359609
Montechiarugolo,44.6934008,10.4224798
Montemar,6.4155325,-74.8520346
Monterrey,25.6802019,-100.315258
Montevideo,-34.9058916,-56.1913095
Monza,45.6395418,9.2788304
Mouilleron le Captif,46.7203336,-1.4590747
Mouilleron-Le-Captif,46.7203336,-1.4590747
Murcia,37.9347521,-1.1131029
Naples,40.8358846,14.2487679
Nonthaburi 1,13.8611656,100.5133155
Nonthaburi 2,13.8428962,100.4937886
Nonthaburi 3,13.8428962,100.4937886
Nonthaburi 4,13.9181817,100.4230925
Nottingham 2,52.9670497,-1.1506226
Nottingham 3,52.9670795,-1.1505163
Noumea,-22.2745264,166.442419
Oeiras,38.6925777,-9.3123076
Oeiras 1,38.7506296,-9.3049657
Oeiras 2,38.6961133,-9.3287121
Oeiras 3,38.7517289,-9.3056567
Oeiras 4,38.7279096,-9.2966847
Oeiras 5,38.7230773,-9.3044287
Olbia,40.9232659,9.5027442
Orleans,47.9027336,1.9086066
Ortisei,46.5752077,11.6721382
Ostrava,49.8349139,18.2820084
Ottignies Louvain,50.666357,4.5690502
Ottignies-Louvain-la-Neuve,50.6654216,4.5674107
Palmas Del Mar,18.0849921,-65.8034056
Palo Alto,37.4443293,-122.1598465
Pau,43.2957547,-0.3685668
Phan Thiet 1,10.9284245,108.1196522
Phan Thiet 2,10.9296264,108.1043869
Phoenix,33.4484367,-112.074141
Piracicaba,-22.725165,-47.6493269
Playford,-34.6942801,138.7309412
Porto 2,46.4447727,13.3140945
Porto Alegre,-30.0324999,-51.2303767
Pozoblanco,38.3780204,-4.848573
Prostejov,49.4721467,17.1117979
Puerto Vallarta,20.6407176,-105.220306
Punta Del Este,-34.9632342,-54.9439981
Quimper,47.9960325,-4.1024782
Rennes,48.1113387,-1.6800198
Roanne,46.0345572,4.0729178
Rome GA,34.257038,-85.1646726
Roseto Degli Abruzzi,42.677577,14.0144636
Rovereto,45.886548,11.0452369
Royan,45.6245332,-1.0287636
Saint Brieuc,48.5141134,-2.7603283
Saint-Tropez,43.2727191,6.6405225
Salinas,36.6744117,-121.655037
Salzburg,47.7981346,13.0464806
San Benedetto Del Tronto,42.9525328,13.8807144
San Luis Potosi,22.5000001,-100.4949145
San Marino,43.9458623,12.458306
San Miguel De Tucuman,-26.8303703,-65.2038133
San Miguel de Tucuman,-26.8303703,-65.2038133
Sanremo,43.8362985,7.7772658
Santa Cruz De La Sierra,-17.7834217,-63.1820853
Santa Cruz de la Sierra,-17.7834217,-63.1820853
Santa Fe,-30.3154739,-61.1645076
Santos,-23.9609448,-46.3166316
Sao Leopoldo,-29.7544405,-51.1516497
Sarasota,27.3365805,-82.5308545
Sassuolo,44.5409769,10.7829023
Savannah,32.0790074,-81.0921335
Segovia,40.9481192,-4.1172101
Seoul,37.5666791,126.9782914
Seville,37.3886303,-5.9953403
Shenzhen Futian,22.5243632,114.049894
Shenzhen Longhua,22.6994309,114.0398603
Shymkent 1,42.3146962,69.5883282
Shymkent 2,42.3841481,69.7776266
Sibiu,45.7973912,24.1519202
Sioux Falls,43.5476008,-96.7293629
Sofia 1,42.7705215,23.3595352
Sofia 2,47.1006588,28.1727952
Soma Bay,26.8353707,33.9420625
St. Brieuc,48.5141134,-2.7603283
Sumter,28.6689748,-82.076402
Surbiton,51.3937557,-0.3033105
Suzhou,31.311123,120.6212881
Szczecin,53.4301818,14.5509623
Szekesfehervar,47.1910169,18.410811
Taipei 2,25.0398684,121.5108938
Tampere,61.4977929,23.7616372
Targu Mures 2,46.5446253,24.561196
Temuco,-38.7358908,-72.590538
Tenerife,28.2935785,-16.6214471
Tenerife 1,-34.9255201,-54.944545
Tenerife 2,52.0566576,4.5392981
Tenerife 3,-34.9252444,-54.9448735
Thionville,49.3579272,6.1675872
Tiburon,37.8775332,-122.460808
Tigre,13.881273,39.127495
Tigre 1,33.55557,-117.72324
Tigre 2,33.5554475,-117.7230095
Todi,42.7824434,12.4062554
Trieste,45.6496485,13.7772781
Troyes,48.2971626,4.0746257
Tulln,48.3311702,16.05179
Tunis,33.8439408,9.400138
Tyler,32.3512601,-95.3010624
Verona,45.4424977,10.9857377
Vicenza,45.6348591,11.4063543
Vina Del Mar,-33.0244535,-71.5517636
Waco,31.5491899,-97.1474628
Winnipeg,49.8955367,-97.1384584
Winston Salem,36.0998131,-80.2440518
Wuning 1,29.2504202,115.0871035
Wuning 2,29.2504202,115.0871035
Wuxi,31.5776626,120.2952752
Yokkaichi,34.9648428,136.624845
Yokohama,35.4503381,139.6343802
Zadar,44.1168594,15.2353257
Zhangjiagang,31.8782976,120.5514595
Zug,47.1486137,8.5539378
"Alicante (Montemar), Spain",38.0659874,-0.7876383
"Brasília (Federal District), Brazil",-15.8032581,-47.8854767
"Bratislava 2, Slovakia",48.1516988,17.1093063
"Buenos Aires 1, Argentina",-31.4165749,-64.1826577
"Buenos Aires 2, Argentina",-34.7024539,-58.5348134
"Burnie 2, Australia",-41.0599304,145.8819218
"Centurion 1, South Africa",-25.8557776,28.2165253
"Centurion 2, South Africa",-25.8702188,28.2124409
"Indian Wells 1, United States",33.106005,-96.8517242
"Indian Wells 2, United States",33.105767,-96.8516657
"Lima 2, Peru",-12.0459808,-77.0305912
"Porto 2, Portugal",38.7970762,-9.339013
"Salinas, Ecuador",-2.2612497,-80.9237973
"Tenerife 1, Spain",41.636313,-0.883746
"Tenerife 2, Spain",40.448877,-3.705435
"Tenerife 3, Spain",40.4490408,-3.7055118
"Tigre 1, Argentina",-27.3605151,-55.2316222
"Tigre 2, Argentina",-34.4439373,-58.5783398
"Tigre, Argentina",-34.4235341,-58.5817628
"Tunis city, Tunisia",36.900303,10.1230006
"Fairfield CA, United States",38.2521006,-122.0408672
"Indian Wells 1 CA, United States",37.832795,-122.140569
"Indian Wells 2 CA, United States",37.832461,-122.140488
"Leon, Mexico",21.121965,-101.6829766
"Sofia 1, Bulgaria",42.7705215,23.3595352
"Sofia 2, Bulgaria",43.5384557,24.5895967
"Sumter SC, United States",33.6748904,-79.8441465
